[
  {
  "name" : "University Library",
  "location":{
    "lat" :33.77722251771012,
    "long" :-118.11428489516281
  }
},
  {
  "name" : "Caffeine Lab",
  "location":{
    "lat" :33.77723668814858,
    "long" :-118.11479171836712
  }
},
  {
  "name" : "Bookstore",
  "location":{
    "lat" :33.78017847605604,
    "long" :-118.11414005505702
  }
},
{
  "name" : "USU",
  "location":{
    "lat" :33.78110036856808,
    "long" :-118.11377573269851
  }
},
    {
  "name" : "Coffee Bean",
  "location":{
    "lat" :33.78116594607872,
    "long" :-118.11300483210846
  }
},
  {
  "name" : "Japanese Garden",
  "location":{
    "lat" :33.78510271774986,
    "long" :-118.11957460135201
  }
},
  {
  "name" : "Gym",
  "location":{
    "lat" :33.78501347864235,
    "long" :-118.10882785259946
  }
},
  {
    "name": "Go Beach",
    "location": {
      "lat":33.78193619731233,
      "long":-118.11484054578304
    }
  },
    {
    "name": "Beach",
    "location": {
      "lat":33.757572336929265,
      "long":-118.11992247732638
    }
  }
]
