[
  {
    "name": "Go Beach",
    "location": {
      "lat":33.78193619731233,
      "long":-118.11484054578304
    }
  },
  {
  "name" : "Chapter II",
  "location":{
    "lat" :33.75972855286545,
    "long" :-118.13301249524672
  }
},
  {
  "name" : "V Cafe",
  "location":{
    "lat" :33.788670563882945,
    "long" :-118.13348885259371
  }
},
  {
  "name" : "Stereoscope",
  "location":{
    "lat" :33.76118808773813,
    "long" :-118.13662899665714
  }
},
{
  "name" : "Set Forth",
  "location":{
    "lat" :33.783391559699645,
    "long" :-118.1503693513563
  }
},
    {
  "name" : "Viento y Agua",
  "location":{
    "lat" :33.77183711920126,
    "long" :-118.14558742739044
  }
},
  {
  "name" : "Good Time",
  "location":{
    "lat" :33.78325645679751,
    "long" :-118.15338645821949
  }
},
  {
  "name" : "Rad",
  "location":{
    "lat" :33.820233944869685,
    "long" :-118.18471252925458
  }
},
  {
  "name" : "Cyclops",
  "location":{
    "lat" :33.7887359825587,
    "long" :-118.13358707261476
  }
}
]
